{
 "spatialReference": {
  "wkid": 4326,
  "latestWkid": 4326
 },
 "candidates": [
  {
   "address": "University Federal Credit Union",
   "location": {
    "x": -111.83041998499634,
    "y": 40.757489959461211
   },
   "score": 100,
   "attributes": {
    "PlaceName": "University Federal Credit Union",
    "Place_Addr": "505 S Wakara Way, Salt Lake City, Utah, 84108",
    "City": "Salt Lake City",
    "Region": "Utah"
   },
   "extent": {
    "xmin": -111.83524999999997,
    "ymin": 40.752310000000072,
    "xmax": -111.82524999999998,
    "ymax": 40.762310000000078
   }
  },
  {
   "address": "University of Utah Credit Union",
   "location": {
    "x": -111.83041998499634,
    "y": 40.757489959461211
   },
   "score": 100,
   "attributes": {
    "PlaceName": "University of Utah Credit Union",
    "Place_Addr": "505 S Wakara Way, Salt Lake City, Utah, 84108",
    "City": "Salt Lake City",
    "Region": "Utah"
   },
   "extent": {
    "xmin": -111.83524999999997,
    "ymin": 40.752310000000072,
    "xmax": -111.82524999999998,
    "ymax": 40.762310000000078
   }
  },
  {
   "address": "Univ Utah Orthopedic Pharmacy",
   "location": {
    "x": -111.83273999999994,
    "y": 40.755720000000053
   },
   "score": 100,
   "attributes": {
    "PlaceName": "Univ Utah Orthopedic Pharmacy",
    "Place_Addr": "590 S Wakara Way, Salt Lake City, Utah, 84108",
    "City": "Salt Lake City",
    "Region": "Utah"
   },
   "extent": {
    "xmin": -111.83773999999994,
    "ymin": 40.750720000000051,
    "xmax": -111.82773999999995,
    "ymax": 40.760720000000056
   }
  },
  {
   "address": "Madsen Clinic Pharmacy",
   "location": {
    "x": -111.83643999999998,
    "y": 40.75759000000005
   },
   "score": 100,
   "attributes": {
    "PlaceName": "Madsen Clinic Pharmacy",
    "Place_Addr": "555 Foothill Blvd, Salt Lake City, Utah, 84112",
    "City": "Salt Lake City",
    "Region": "Utah"
   },
   "extent": {
    "xmin": -111.84143999999998,
    "ymin": 40.752590000000048,
    "xmax": -111.83143999999999,
    "ymax": 40.762590000000053
   }
  },
  {
   "address": "University Neuropsych Pharmacy",
   "location": {
    "x": -111.82372999999995,
    "y": 40.757570000000044
   },
   "score": 100,
   "attributes": {
    "PlaceName": "University Neuropsych Pharmacy",
    "Place_Addr": "501 S Chipeta Way, Salt Lake City, Utah, 84108",
    "City": "Salt Lake City",
    "Region": "Utah"
   },
   "extent": {
    "xmin": -111.82872999999995,
    "ymin": 40.752570000000041,
    "xmax": -111.81872999999996,
    "ymax": 40.762570000000046
   }
  },
  {
   "address": "University of Utah Credit Union",
   "location": {
    "x": -111.83643000779024,
    "y": 40.762010033325573
   },
   "score": 100,
   "attributes": {
    "PlaceName": "University of Utah Credit Union",
    "Place_Addr": "1901 E South Campus Dr, Salt Lake City, Utah, 84112",
    "City": "Salt Lake City",
    "Region": "Utah"
   },
   "extent": {
    "xmin": -111.84162999999995,
    "ymin": 40.757220000000068,
    "xmax": -111.83162999999996,
    "ymax": 40.767220000000073
   }
  },
  {
   "address": "University of Utah Credit Union",
   "location": {
    "x": -111.83643000779024,
    "y": 40.762010033325573
   },
   "score": 100,
   "attributes": {
    "PlaceName": "University of Utah Credit Union",
    "Place_Addr": "1901 E South Campus Dr, Salt Lake City, Utah, 84112",
    "City": "Salt Lake City",
    "Region": "Utah"
   },
   "extent": {
    "xmin": -111.84162999999995,
    "ymin": 40.757220000000068,
    "xmax": -111.83162999999996,
    "ymax": 40.767220000000073
   }
  },
  {
   "address": "American United Family of CU",
   "location": {
    "x": -111.83852001673435,
    "y": 40.758289993653953
   },
   "score": 100,
   "attributes": {
    "PlaceName": "American United Family of CU",
    "Place_Addr": "500 Foothill Blvd, Salt Lake City, Utah, 84148",
    "City": "Salt Lake City",
    "Region": "Utah"
   },
   "extent": {
    "xmin": -111.84437999999994,
    "ymin": 40.750760000000064,
    "xmax": -111.83437999999995,
    "ymax": 40.760760000000069
   }
  },
  {
   "address": "American United Credit Union",
   "location": {
    "x": -111.83852001673435,
    "y": 40.758289993653953
   },
   "score": 100,
   "attributes": {
    "PlaceName": "American United Credit Union",
    "Place_Addr": "500 Foothill Blvd, Salt Lake City, Utah, 84148",
    "City": "Salt Lake City",
    "Region": "Utah"
   },
   "extent": {
    "xmin": -111.84437999999994,
    "ymin": 40.750760000000064,
    "xmax": -111.83437999999995,
    "ymax": 40.760760000000069
   }
  },
  {
   "address": "PCMC Outpatient",
   "location": {
    "x": -111.83751999999998,
    "y": 40.76616000000007
   },
   "score": 100,
   "attributes": {
    "PlaceName": "PCMC Outpatient",
    "Place_Addr": "100 S Mario Capecchi Dr, Salt Lake City, Utah, 84113",
    "City": "Salt Lake City",
    "Region": "Utah"
   },
   "extent": {
    "xmin": -111.84251999999998,
    "ymin": 40.761160000000068,
    "xmax": -111.83251999999999,
    "ymax": 40.771160000000073
   }
  },
  {
   "address": "University of Utah Credit Union",
   "location": {
    "x": -111.83476999999999,
    "y": 40.768110000000036
   },
   "score": 100,
   "attributes": {
    "PlaceName": "University of Utah Credit Union",
    "Place_Addr": "30 Medical Dr S, Salt Lake City, Utah, 84132",
    "City": "Salt Lake City",
    "Region": "Utah"
   },
   "extent": {
    "xmin": -111.83976999999999,
    "ymin": 40.763110000000033,
    "xmax": -111.82977,
    "ymax": 40.773110000000038
   }
  },
  {
   "address": "University of Utah Credit Union",
   "location": {
    "x": -111.83476999999999,
    "y": 40.768110000000036
   },
   "score": 100,
   "attributes": {
    "PlaceName": "University of Utah Credit Union",
    "Place_Addr": "30 Medical Dr S, Salt Lake City, Utah, 84132",
    "City": "Salt Lake City",
    "Region": "Utah"
   },
   "extent": {
    "xmin": -111.83976999999999,
    "ymin": 40.763110000000033,
    "xmax": -111.82977,
    "ymax": 40.773110000000038
   }
  },
  {
   "address": "Wells Fargo",
   "location": {
    "x": -111.83635999999996,
    "y": 40.768000000000029
   },
   "score": 100,
   "attributes": {
    "PlaceName": "Wells Fargo",
    "Place_Addr": "100 S 1880 E, Salt Lake City, Utah, 84132",
    "City": "Salt Lake City",
    "Region": "Utah"
   },
   "extent": {
    "xmin": -111.84135999999995,
    "ymin": 40.763000000000027,
    "xmax": -111.83135999999996,
    "ymax": 40.773000000000032
   }
  },
  {
   "address": "Moran Eye Center Pharmacy",
   "location": {
    "x": -111.83702999999997,
    "y": 40.768650000000036
   },
   "score": 100,
   "attributes": {
    "PlaceName": "Moran Eye Center Pharmacy",
    "Place_Addr": "65 S 1880 E, Salt Lake City, Utah, 84132",
    "City": "Salt Lake City",
    "Region": "Utah"
   },
   "extent": {
    "xmin": -111.84202999999997,
    "ymin": 40.763650000000034,
    "xmax": -111.83202999999997,
    "ymax": 40.773650000000039
   }
  },
  {
   "address": "Chase",
   "location": {
    "x": -111.84474999999998,
    "y": 40.765600000000063
   },
   "score": 100,
   "attributes": {
    "PlaceName": "Chase",
    "Place_Addr": "200 Central Campus Dr, Salt Lake City, Utah, 84112",
    "City": "Salt Lake City",
    "Region": "Utah"
   },
   "extent": {
    "xmin": -111.84974999999997,
    "ymin": 40.760600000000061,
    "xmax": -111.83974999999998,
    "ymax": 40.770600000000066
   }
  },
  {
   "address": "Mountain America Credit Union ATM",
   "location": {
    "x": -111.84481999999997,
    "y": 40.765580000000057
   },
   "score": 100,
   "attributes": {
    "PlaceName": "Mountain America Credit Union ATM",
    "Place_Addr": "200 Central Campus Dr, Salt Lake City, Utah, 84112",
    "City": "Salt Lake City",
    "Region": "Utah"
   },
   "extent": {
    "xmin": -111.84981999999997,
    "ymin": 40.760580000000054,
    "xmax": -111.83981999999997,
    "ymax": 40.770580000000059
   }
  },
  {
   "address": "University of Utah Credit Union",
   "location": {
    "x": -111.84717999999998,
    "y": 40.762190000000032
   },
   "score": 100,
   "attributes": {
    "PlaceName": "University of Utah Credit Union",
    "Place_Addr": "270 S 1500 E, Salt Lake City, Utah, 84112",
    "City": "Salt Lake City",
    "Region": "Utah"
   },
   "extent": {
    "xmin": -111.85217999999998,
    "ymin": 40.75719000000003,
    "xmax": -111.84217999999998,
    "ymax": 40.767190000000035
   }
  },
  {
   "address": "University of Utah Credit Union",
   "location": {
    "x": -111.84717999999998,
    "y": 40.762190000000032
   },
   "score": 100,
   "attributes": {
    "PlaceName": "University of Utah Credit Union",
    "Place_Addr": "270 S 1500 E, Salt Lake City, Utah, 84112",
    "City": "Salt Lake City",
    "Region": "Utah"
   },
   "extent": {
    "xmin": -111.85217999999998,
    "ymin": 40.75719000000003,
    "xmax": -111.84217999999998,
    "ymax": 40.767190000000035
   }
  },
  {
   "address": "Wells Fargo",
   "location": {
    "x": -111.84762999999998,
    "y": 40.762680000000046
   },
   "score": 100,
   "attributes": {
    "PlaceName": "Wells Fargo",
    "Place_Addr": "200 S 1500 E, Salt Lake City, Utah, 84112",
    "City": "Salt Lake City",
    "Region": "Utah"
   },
   "extent": {
    "xmin": -111.85262999999998,
    "ymin": 40.757680000000043,
    "xmax": -111.84262999999999,
    "ymax": 40.767680000000048
   }
  },
  {
   "address": "Wells Fargo",
   "location": {
    "x": -111.83940999999999,
    "y": 40.771800000000042
   },
   "score": 100,
   "attributes": {
    "PlaceName": "Wells Fargo",
    "Place_Addr": "1800 E 50 S, Salt Lake City, Utah, 84112",
    "City": "Salt Lake City",
    "Region": "Utah"
   },
   "extent": {
    "xmin": -111.84440999999998,
    "ymin": 40.766800000000039,
    "xmax": -111.83440999999999,
    "ymax": 40.776800000000044
   }
  },
  {
   "address": "University Utah Hospital",
   "location": {
    "x": -111.83679999999998,
    "y": 40.772980000000075
   },
   "score": 100,
   "attributes": {
    "PlaceName": "University Utah Hospital",
    "Place_Addr": "50 Medical Dr N, Salt Lake City, Utah, 84132",
    "City": "Salt Lake City",
    "Region": "Utah"
   },
   "extent": {
    "xmin": -111.84179999999998,
    "ymin": 40.767980000000072,
    "xmax": -111.83179999999999,
    "ymax": 40.777980000000078
   }
  },
  {
   "address": "Huntsman Cancer Hospital Pharmacy",
   "location": {
    "x": -111.83675999999997,
    "y": 40.773470000000032
   },
   "score": 100,
   "attributes": {
    "PlaceName": "Huntsman Cancer Hospital Pharmacy",
    "Place_Addr": "1950 Circle of Hope Dr, Salt Lake City, Utah, 84112",
    "City": "Salt Lake City",
    "Region": "Utah"
   },
   "extent": {
    "xmin": -111.84175999999997,
    "ymin": 40.768470000000029,
    "xmax": -111.83175999999997,
    "ymax": 40.778470000000034
   }
  },
  {
   "address": "Wells Fargo",
   "location": {
    "x": -111.85017999999997,
    "y": 40.758820000000071
   },
   "score": 100,
   "attributes": {
    "PlaceName": "Wells Fargo",
    "Place_Addr": "451 S 1400 E, Salt Lake City, Utah, 84112",
    "City": "Salt Lake City",
    "Region": "Utah"
   },
   "extent": {
    "xmin": -111.85517999999996,
    "ymin": 40.753820000000069,
    "xmax": -111.84517999999997,
    "ymax": 40.763820000000074
   }
  },
  {
   "address": "Primary Hospital Credit Union",
   "location": {
    "x": -111.83954999999997,
    "y": 40.772850000000062
   },
   "score": 100,
   "attributes": {
    "PlaceName": "Primary Hospital Credit Union",
    "Place_Addr": "100 Medical Dr N, Salt Lake City, Utah, 84112",
    "City": "Salt Lake City",
    "Region": "Utah"
   },
   "extent": {
    "xmin": -111.84454999999997,
    "ymin": 40.76785000000006,
    "xmax": -111.83454999999998,
    "ymax": 40.777850000000065
   }
  },
  {
   "address": "Farmer Jones Market",
   "location": {
    "x": -111.85290999999995,
    "y": 40.758350000000064
   },
   "score": 100,
   "attributes": {
    "PlaceName": "Farmer Jones Market",
    "Place_Addr": "1320 E 500 S, Salt Lake City, Utah, 84102",
    "City": "Salt Lake City",
    "Region": "Utah"
   },
   "extent": {
    "xmin": -111.85790999999995,
    "ymin": 40.753350000000061,
    "xmax": -111.84790999999996,
    "ymax": 40.763350000000067
   }
  },
  {
   "address": "Chase",
   "location": {
    "x": -111.83073997388783,
    "y": 40.742040000000031
   },
   "score": 100,
   "attributes": {
    "PlaceName": "Chase",
    "Place_Addr": "1285 S 2100 E, Salt Lake City, Utah, 84108",
    "City": "Salt Lake City",
    "Region": "Utah"
   },
   "extent": {
    "xmin": -111.83549999999997,
    "ymin": 40.737040000000029,
    "xmax": -111.82549999999998,
    "ymax": 40.747040000000034
   }
  },
  {
   "address": "Chase",
   "location": {
    "x": -111.83073997388783,
    "y": 40.742040000000031
   },
   "score": 100,
   "attributes": {
    "PlaceName": "Chase",
    "Place_Addr": "1285 S 2100 E, Salt Lake City, Utah, 84108",
    "City": "Salt Lake City",
    "Region": "Utah"
   },
   "extent": {
    "xmin": -111.83549999999997,
    "ymin": 40.737040000000029,
    "xmax": -111.82549999999998,
    "ymax": 40.747040000000034
   }
  },
  {
   "address": "Wells Fargo",
   "location": {
    "x": -111.82763005164736,
    "y": 40.742039945034463
   },
   "score": 100,
   "attributes": {
    "PlaceName": "Wells Fargo",
    "Place_Addr": "1290 S Foothill Dr, Salt Lake City, Utah, 84108",
    "City": "Salt Lake City",
    "Region": "Utah"
   },
   "extent": {
    "xmin": -111.83287999999999,
    "ymin": 40.736920000000048,
    "xmax": -111.82288,
    "ymax": 40.746920000000053
   }
  },
  {
   "address": "Wells Fargo",
   "location": {
    "x": -111.82763005164736,
    "y": 40.742039945034463
   },
   "score": 100,
   "attributes": {
    "PlaceName": "Wells Fargo",
    "Place_Addr": "1290 S Foothill Dr, Salt Lake City, Utah, 84108",
    "City": "Salt Lake City",
    "Region": "Utah"
   },
   "extent": {
    "xmin": -111.83287999999999,
    "ymin": 40.736920000000048,
    "xmax": -111.82288,
    "ymax": 40.746920000000053
   }
  },
  {
   "address": "FedEx Office",
   "location": {
    "x": -111.85235999999998,
    "y": 40.764830000000075
   },
   "score": 100,
   "attributes": {
    "PlaceName": "FedEx Office",
    "Place_Addr": "200 S University St, Salt Lake City, Utah, 84102",
    "City": "Salt Lake City",
    "Region": "Utah"
   },
   "extent": {
    "xmin": -111.85735999999997,
    "ymin": 40.759830000000072,
    "xmax": -111.84735999999998,
    "ymax": 40.769830000000077
   }
  },
  {
   "address": "Zions Bank",
   "location": {
    "x": -111.82716003332548,
    "y": 40.741479996104907
   },
   "score": 100,
   "attributes": {
    "PlaceName": "Zions Bank",
    "Place_Addr": "1304 S Foothill Dr, Salt Lake City, Utah, 84108",
    "City": "Salt Lake City",
    "Region": "Utah"
   },
   "extent": {
    "xmin": -111.83236999999997,
    "ymin": 40.736380000000047,
    "xmax": -111.82236999999998,
    "ymax": 40.746380000000052
   }
  },
  {
   "address": "Zions Bank",
   "location": {
    "x": -111.82716003332548,
    "y": 40.741479996104907
   },
   "score": 100,
   "attributes": {
    "PlaceName": "Zions Bank",
    "Place_Addr": "1304 S Foothill Dr, Salt Lake City, Utah, 84108",
    "City": "Salt Lake City",
    "Region": "Utah"
   },
   "extent": {
    "xmin": -111.83236999999997,
    "ymin": 40.736380000000047,
    "xmax": -111.82236999999998,
    "ymax": 40.746380000000052
   }
  },
  {
   "address": "University Pharmacy",
   "location": {
    "x": -111.85291999999998,
    "y": 40.764999941139301
   },
   "score": 100,
   "attributes": {
    "PlaceName": "University Pharmacy",
    "Place_Addr": "1320 E 200 S, Salt Lake City, Utah, 84102",
    "City": "Salt Lake City",
    "Region": "Utah"
   },
   "extent": {
    "xmin": -111.85791999999998,
    "ymin": 40.759780000000028,
    "xmax": -111.84791999999999,
    "ymax": 40.769780000000033
   }
  },
  {
   "address": "Sinclair",
   "location": {
    "x": -111.82690999884613,
    "y": 40.741270003895217
   },
   "score": 100,
   "attributes": {
    "PlaceName": "Sinclair",
    "Place_Addr": "1309 S Foothill Dr, Salt Lake City, Utah, 84108",
    "City": "Salt Lake City",
    "Region": "Utah"
   },
   "extent": {
    "xmin": -111.83144999999996,
    "ymin": 40.736370000000072,
    "xmax": -111.82144999999997,
    "ymax": 40.746370000000077
   }
  },
  {
   "address": "Wells Fargo",
   "location": {
    "x": -111.85385995556597,
    "y": 40.763660000000073
   },
   "score": 100,
   "attributes": {
    "PlaceName": "Wells Fargo",
    "Place_Addr": "235 S 1300 E, Salt Lake City, Utah, 84102",
    "City": "Salt Lake City",
    "Region": "Utah"
   },
   "extent": {
    "xmin": -111.85857999999996,
    "ymin": 40.75866000000007,
    "xmax": -111.84857999999997,
    "ymax": 40.768660000000075
   }
  },
  {
   "address": "Wells Fargo",
   "location": {
    "x": -111.85385995556597,
    "y": 40.763660000000073
   },
   "score": 100,
   "attributes": {
    "PlaceName": "Wells Fargo",
    "Place_Addr": "235 S 1300 E, Salt Lake City, Utah, 84102",
    "City": "Salt Lake City",
    "Region": "Utah"
   },
   "extent": {
    "xmin": -111.85857999999996,
    "ymin": 40.75866000000007,
    "xmax": -111.84857999999997,
    "ymax": 40.768660000000075
   }
  },
  {
   "address": "Frosts Book Store",
   "location": {
    "x": -111.82695999999999,
    "y": 40.741240000000062
   },
   "score": 100,
   "attributes": {
    "PlaceName": "Frosts Book Store",
    "Place_Addr": "1320 S Foothill Dr, Salt Lake City, Utah, 84108",
    "City": "Salt Lake City",
    "Region": "Utah"
   },
   "extent": {
    "xmin": -111.83195999999998,
    "ymin": 40.736240000000059,
    "xmax": -111.82195999999999,
    "ymax": 40.746240000000064
   }
  },
  {
   "address": "7-Eleven",
   "location": {
    "x": -111.85385995556597,
    "y": 40.764530000000036
   },
   "score": 100,
   "attributes": {
    "PlaceName": "7-Eleven",
    "Place_Addr": "209 S 1300 E, Salt Lake City, Utah, 84102",
    "City": "Salt Lake City",
    "Region": "Utah"
   },
   "extent": {
    "xmin": -111.85857999999996,
    "ymin": 40.759530000000034,
    "xmax": -111.84857999999997,
    "ymax": 40.769530000000039
   }
  },
  {
   "address": "UPS Store",
   "location": {
    "x": -111.82671999999997,
    "y": 40.740970000000061
   },
   "score": 100,
   "attributes": {
    "PlaceName": "UPS Store",
    "Place_Addr": "1338 S Foothill Dr, Salt Lake City, Utah, 84108",
    "City": "Salt Lake City",
    "Region": "Utah"
   },
   "extent": {
    "xmin": -111.83171999999996,
    "ymin": 40.735970000000059,
    "xmax": -111.82171999999997,
    "ymax": 40.745970000000064
   }
  },
  {
   "address": "KeyBank",
   "location": {
    "x": -111.85392005554249,
    "y": 40.763070000000027
   },
   "score": 100,
   "attributes": {
    "PlaceName": "KeyBank",
    "Place_Addr": "290 S 1300 E, Salt Lake City, Utah, 84102",
    "City": "Salt Lake City",
    "Region": "Utah"
   },
   "extent": {
    "xmin": -111.85926999999998,
    "ymin": 40.758070000000025,
    "xmax": -111.84926999999999,
    "ymax": 40.76807000000003
   }
  },
  {
   "address": "KeyBank",
   "location": {
    "x": -111.85392005554249,
    "y": 40.763070000000027
   },
   "score": 100,
   "attributes": {
    "PlaceName": "KeyBank",
    "Place_Addr": "290 S 1300 E, Salt Lake City, Utah, 84102",
    "City": "Salt Lake City",
    "Region": "Utah"
   },
   "extent": {
    "xmin": -111.85926999999998,
    "ymin": 40.758070000000025,
    "xmax": -111.84926999999999,
    "ymax": 40.76807000000003
   }
  },
  {
   "address": "Babinski's Baby",
   "location": {
    "x": -111.82728004775223,
    "y": 40.740879945034493
   },
   "score": 100,
   "attributes": {
    "PlaceName": "Babinski's Baby",
    "Place_Addr": "1324 S Foothill Dr, Salt Lake City, Utah, 84108",
    "City": "Salt Lake City",
    "Region": "Utah"
   },
   "extent": {
    "xmin": -111.83242999999999,
    "ymin": 40.735760000000077,
    "xmax": -111.82243,
    "ymax": 40.745760000000082
   }
  },
  {
   "address": "Babinski's",
   "location": {
    "x": -111.82728004775223,
    "y": 40.740879945034493
   },
   "score": 100,
   "attributes": {
    "PlaceName": "Babinski's",
    "Place_Addr": "1324 S Foothill Dr, Salt Lake City, Utah, 84108",
    "City": "Salt Lake City",
    "Region": "Utah"
   },
   "extent": {
    "xmin": -111.83242999999999,
    "ymin": 40.735760000000077,
    "xmax": -111.82243,
    "ymax": 40.745760000000082
   }
  },
  {
   "address": "Haroon's",
   "location": {
    "x": -111.82724006607408,
    "y": 40.740690076605738
   },
   "score": 100,
   "attributes": {
    "PlaceName": "Haroon's",
    "Place_Addr": "1326 S Foothill Dr, Salt Lake City, Utah, 84108",
    "City": "Salt Lake City",
    "Region": "Utah"
   },
   "extent": {
    "xmin": -111.83242999999999,
    "ymin": 40.735720000000065,
    "xmax": -111.82243,
    "ymax": 40.74572000000007
   }
  },
  {
   "address": "Steur & Friends",
   "location": {
    "x": -111.83079004775217,
    "y": 40.740599923394377
   },
   "score": 100,
   "attributes": {
    "PlaceName": "Steur & Friends",
    "Place_Addr": "1344 S 2100 E, Salt Lake City, Utah, 84108",
    "City": "Salt Lake City",
    "Region": "Utah"
   },
   "extent": {
    "xmin": -111.83593999999994,
    "ymin": 40.735570000000045,
    "xmax": -111.82593999999995,
    "ymax": 40.74557000000005
   }
  },
  {
   "address": "Four and Twenty Sailors",
   "location": {
    "x": -111.82683002337083,
    "y": 40.741089958884267
   },
   "score": 100,
   "attributes": {
    "PlaceName": "Four and Twenty Sailors",
    "Place_Addr": "1328 S Foothill Dr, Salt Lake City, Utah, 84108",
    "City": "Salt Lake City",
    "Region": "Utah"
   },
   "extent": {
    "xmin": -111.83242999999999,
    "ymin": 40.735680000000052,
    "xmax": -111.82243,
    "ymax": 40.745680000000057
   }
  },
  {
   "address": "Bra Bar Boutique",
   "location": {
    "x": -111.82654999999994,
    "y": 40.740770000000055
   },
   "score": 100,
   "attributes": {
    "PlaceName": "Bra Bar Boutique",
    "Place_Addr": "1352 S Foothill Dr, Salt Lake City, Utah, 84108",
    "City": "Salt Lake City",
    "Region": "Utah"
   },
   "extent": {
    "xmin": -111.83154999999994,
    "ymin": 40.735770000000052,
    "xmax": -111.82154999999995,
    "ymax": 40.745770000000057
   }
  },
  {
   "address": "Champion's Club",
   "location": {
    "x": -115.42626999999999,
    "y": 32.663600000000031
   },
   "score": 100,
   "attributes": {
    "PlaceName": "Champion's Club",
    "Place_Addr": "Avenida de los Jazmines, Estatuto Jurídico, Mexicali, Baja California, 21210",
    "City": "Mexicali",
    "Region": "Baja California"
   },
   "extent": {
    "xmin": -115.43126999999998,
    "ymin": 32.658600000000028,
    "xmax": -115.42126999999999,
    "ymax": 32.668600000000033
   }
  },
  {
   "address": "Gym Flex",
   "location": {
    "x": -115.42624999999998,
    "y": 32.662190000000066
   },
   "score": 100,
   "attributes": {
    "PlaceName": "Gym Flex",
    "Place_Addr": "Calzada de las Américas, Compuertas, Mexicali, Baja California, 21218",
    "City": "Mexicali",
    "Region": "Baja California"
   },
   "extent": {
    "xmin": -115.43124999999998,
    "ymin": 32.657190000000064,
    "xmax": -115.42124999999999,
    "ymax": 32.667190000000069
   }
  },
  {
   "address": "Anytime Fitness Mexicali",
   "location": {
    "x": -115.39930999999996,
    "y": 32.652970000000039
   },
   "score": 100,
   "attributes": {
    "PlaceName": "Anytime Fitness Mexicali",
    "Place_Addr": "Calzada Cetis, Fracc Rivera, Mexicali, Baja California, 21259",
    "City": "Mexicali",
    "Region": "Baja California"
   },
   "extent": {
    "xmin": -115.40430999999995,
    "ymin": 32.647970000000036,
    "xmax": -115.39430999999996,
    "ymax": 32.657970000000041
   }
  }
 ]
}
